{
  "data": [
    {
      "id": "1",
      "name": "일곡동물병원",
      "address": "광주광역시 북구 양일로305번길 8 (일곡동)",
      "latitude": 35.20317056,
      "longitude": 126.8971754,
      "regionCode": 5,
      "tel": "010-1234-5678"
    },
    {
      "id": "2",
      "name": "우리동물병원",
      "address": "광주광역시 북구 태봉로 37-6 (임동)",
      "latitude": 35.16155901,
      "longitude": 126.9033476,
      "regionCode": 5,
      "tel": "010-2234-5678"
    },
    {
      "id": "3",
      "name": "참좋은 동물병원",
      "address": "광주광역시 북구 하서로 371, 1층 (양산동)",
      "latitude": 35.20809412,
      "longitude": 126.8734525,
      "regionCode": 5,
      "tel": "010-3234-5678"
    },
    {
      "id": "4",
      "name": "빛고을 동물의료센터",
      "address": "광주광역시 북구 중문로 74 (우산동)",
      "latitude": 35.17910455,
      "longitude": 126.9206169,
      "regionCode": 5,
      "tel": "010-4234-5678"
    },
    {
      "id": "5",
      "name": "24시 언제나 동물병원",
      "address": "광주광역시 북구 하백로5번길 1 (매곡동)",
      "latitude": 35.18788582,
      "longitude": 126.8904249,
      "regionCode": 5,
      "tel": "010-5234-5678"
    },
    {
      "id": "6",
      "name": "유동물병원",
      "address": "광주광역시 북구 서암대로 167 (신안동)",
      "latitude": 35.16932195,
      "longitude": 126.902512,
      "regionCode": 5,
      "tel": "010-6234-5678"
    },
    {
      "id": "7",
      "name": "이든동물병원",
      "address": "광주광역시 북구 설죽로471번길 101-102 (삼각동)",
      "latitude": 35.20134164,
      "longitude": 126.8989353,
      "regionCode": 5,
      "tel": "010-7234-5678"
    },
    {
      "id": "8",
      "name": "소담동물병원(출장전문)",
      "address": "광주광역시 북구 하서로 652-15, 2층 (지야동)",
      "latitude": 35.23077921,
      "longitude": 126.8868523,
      "regionCode": 5,
      "tel": "010-8234-5678"
    },
    {
      "id": "9",
      "name": "광주동물보호소 부속동물병원",
      "address": "광주광역시 북구 본촌마을길 27, 동물보호소 (본촌동)",
      "latitude": 35.22249346,
      "longitude": 126.8814392,
      "regionCode": 5,
      "tel": "010-9234-5678"
    },
    {
      "id": "10",
      "name": "경북대학교 수의과대학 부속동물병원",
      "address": "대구광역시 북구 대학로 80 (산격동, 경북대학교 수의과대학)",
      "latitude": 35.89070706,
      "longitude": 128.6100191,
      "regionCode": 4,
      "tel": "010-1024-5678"
    },
    {
      "id": "11",
      "name": "대구축협동물병원",
      "address": "대구광역시 북구 검단북로 154 (검단동)",
      "latitude": 35.91564362,
      "longitude": 128.6231678,
      "regionCode": 4,
      "tel": "010-1124-5678"
    },
    {
      "id": "12",
      "name": "강동물병원",
      "address": "대구광역시 북구 칠곡중앙대로 483 (관음동)",
      "latitude": 35.93884401,
      "longitude": 128.5492661,
      "regionCode": 4,
      "tel": "010-1224-5678"
    },
    {
      "id": "13",
      "name": "다온동물병원",
      "address": "대구광역시 북구 칠곡중앙대로 189 (태전동)",
      "latitude": 35.91296995,
      "longitude": 128.548059,
      "regionCode": 4,
      "tel": "010-1324-5678"
    },
    {
      "id": "14",
      "name": "신한동물병원",
      "address": "대구광역시 북구 침산로21길 23 (칠성동2가, 침산1차푸르지오)",
      "latitude": 35.88524515,
      "longitude": 128.5879744,
      "regionCode": 4,
      "tel": "010-1424-5678"
    },
    {
      "id": "15",
      "name": "동명동물병원",
      "address": "대구광역시 북구 칠곡중앙대로 531 (읍내동)",
      "latitude": 35.94314769,
      "longitude": 128.5504201,
      "regionCode": 4,
      "tel": "010-1524-5678"
    },
    {
      "id": "16",
      "name": "굿모닝동물병원",
      "address": "대구광역시 북구 대천로 72-1 (동천동)",
      "latitude": 35.9369737,
      "longitude": 128.5571745,
      "regionCode": 4,
      "tel": "010-1624-5678"
    },
    {
      "id": "17",
      "name": "가나동물병원",
      "address": "대구광역시 북구 산격로 109 (산격동)",
      "latitude": 35.89932442,
      "longitude": 128.6082465,
      "regionCode": 4,
      "tel": "010-1724-5678"
    },
    {
      "id": "18",
      "name": "늘푸른종합동물병원",
      "address": "대구광역시 북구 칠곡중앙대로 471 (관음동)",
      "latitude": 35.93777301,
      "longitude": 128.5489216,
      "regionCode": 4,
      "tel": "010-1824-5678"
    },
    {
      "id": "19",
      "name": "도그플러스 동물병원(미유펫 대구점)",
      "address": "대구광역시 북구 동암로12길 8, 2층 (동천동, 칠곡홈플러스)",
      "latitude": 35.94484974,
      "longitude": 128.5559392,
      "regionCode": 4,
      "tel": "010-1924-5678"
    }
  ]
}
